{"version": 0.6, "generator": "Overpass API 0.7.62.5 1bd436f1", "osm3s": {"timestamp_osm_base": "2025-05-21T10:43:26Z", "copyright": "The data included in this document is from www.openstreetmap.org. The data is made available under ODbL."}, "elements": [{"type": "node", "id": 7792918694, "lat": 22.6895012, "lon": 120.332435}, {"type": "node", "id": 7792918695, "lat": 22.6895927, "lon": 120.332463}, {"type": "node", "id": 7792918696, "lat": 22.6896768, "lon": 120.3325956}, {"type": "node", "id": 7792918697, "lat": 22.6895969, "lon": 120.3327057}, {"type": "node", "id": 7792918698, "lat": 22.689616, "lon": 120.3327499}, {"type": "node", "id": 7792918699, "lat": 22.689502, "lon": 120.3329078}, {"type": "node", "id": 7792918700, "lat": 22.6894546, "lon": 120.3329366}, {"type": "node", "id": 7792918701, "lat": 22.6892556, "lon": 120.3327399}, {"type": "node", "id": 7792918702, "lat": 22.689254, "lon": 120.3326903}, {"type": "node", "id": 12174181728, "lat": 22.6933889, "lon": 120.3339396}, {"type": "node", "id": 12174181729, "lat": 22.6932661, "lon": 120.3339804}, {"type": "node", "id": 12174181730, "lat": 22.6933236, "lon": 120.3341842}, {"type": "node", "id": 12174181731, "lat": 22.6934466, "lon": 120.3341434}, {"type": "way", "id": 834849044, "nodes": [7792918694, 7792918695, 7792918696, 7792918697, 7792918698, 7792918699, 7792918700, 7792918701, 7792918702, 7792918694], "tags": {"building": "yes"}}, {"type": "way", "id": 1315244136, "nodes": [12174181728, 12174181729, 12174181730, 12174181731, 12174181728], "tags": {"addr:city": "\u9ad8\u96c4\u5e02", "addr:country": "TW", "addr:district": "\u4ec1\u6b66\u5340", "addr:housenumber": "1785", "addr:street": "\u516b\u5fb7\u897f\u8def", "branch": "\u4ec1\u6b66\u4e94\u548c\u5e97", "brand": "\u5168\u5bb6\u4fbf\u5229\u5546\u5e97", "brand:en": "FamilyMart", "brand:wikidata": "Q10891564", "brand:zh": "\u5168\u5bb6\u4fbf\u5229\u5546\u5e97", "building": "yes", "name": "\u5168\u5bb6\u4fbf\u5229\u5546\u5e97", "name:en": "FamilyMart", "name:zh": "\u5168\u5bb6\u4fbf\u5229\u5546\u5e97", "opening_hours": "24/7", "shop": "convenience"}}]}