{"version": 0.6, "generator": "Overpass API 0.7.62.5 1bd436f1", "osm3s": {"timestamp_osm_base": "2025-05-27T13:47:39Z", "copyright": "The data included in this document is from www.openstreetmap.org. The data is made available under ODbL."}, "elements": [{"type": "node", "id": 5330759270, "lat": 22.9871252, "lon": 120.3046649}, {"type": "node", "id": 5330759271, "lat": 22.9873966, "lon": 120.3044721}, {"type": "node", "id": 5330759272, "lat": 22.9875428, "lon": 120.3042509}, {"type": "node", "id": 5330759273, "lat": 22.987501, "lon": 120.3041942}, {"type": "node", "id": 5330759274, "lat": 22.9871615, "lon": 120.3041627}, {"type": "node", "id": 11841762040, "lat": 22.9858282, "lon": 120.298686}, {"type": "node", "id": 11841762041, "lat": 22.9861012, "lon": 120.2986187}, {"type": "node", "id": 11841762042, "lat": 22.9861312, "lon": 120.2987623}, {"type": "node", "id": 11841762043, "lat": 22.9861716, "lon": 120.2987523}, {"type": "node", "id": 11841762044, "lat": 22.9861994, "lon": 120.2988854}, {"type": "node", "id": 11841762045, "lat": 22.9856996, "lon": 120.2990085}, {"type": "node", "id": 11841762046, "lat": 22.9855635, "lon": 120.2983561}, {"type": "node", "id": 11841762047, "lat": 22.9857498, "lon": 120.2983103}, {"type": "way", "id": 552077974, "nodes": [5330759270, 5330759274, 5330759273, 5330759272, 5330759271, 5330759270], "tags": {"addr:city": "\u53f0\u5357\u5e02", "addr:country": "TW", "addr:district": "\u95dc\u5edf\u5340", "addr:housenumber": "355", "addr:postcode": "718", "addr:street": "\u4fdd\u6771\u4e00\u8857", "building": "industrial", "man_made": "works", "name": "\u4e0a\u667a\u98df\u54c1\u80a1\u4efd\u6709\u9650\u516c\u53f8"}}, {"type": "way", "id": 1275336499, "nodes": [11841762047, 11841762046, 11841762045, 11841762044, 11841762043, 11841762042, 11841762041, 11841762040, 11841762047], "tags": {"building": "industrial"}}]}