{"version": 0.6, "generator": "Overpass API 0.7.62.5 1bd436f1", "osm3s": {"timestamp_osm_base": "2025-05-27T09:12:29Z", "copyright": "The data included in this document is from www.openstreetmap.org. The data is made available under ODbL."}, "elements": [{"type": "node", "id": 5321763377, "lat": 23.2013839, "lon": 120.1586289, "tags": {"addr:city": "\u53f0\u5357\u5e02", "addr:country": "TW", "addr:district": "\u5c07\u8ecd\u5340", "addr:housenumber": "185-6", "addr:place": "\u5fe0\u8208\u91cc", "addr:postcode": "725", "amenity": "clinic", "building": "public", "government": "healthcare", "healthcare": "clinic", "name": "\u5c07\u8ecd\u5340\u885b\u751f\u6240", "office": "government"}}, {"type": "node", "id": 6696611443, "lat": 23.2004454, "lon": 120.1583816}, {"type": "node", "id": 6696611444, "lat": 23.2004522, "lon": 120.1584605}, {"type": "node", "id": 6696611445, "lat": 23.2004749, "lon": 120.1587242}, {"type": "node", "id": 6696611446, "lat": 23.2003494, "lon": 120.158737}, {"type": "node", "id": 6696611447, "lat": 23.200327, "lon": 120.1584767}, {"type": "node", "id": 6696611448, "lat": 23.2003199, "lon": 120.1583944}, {"type": "way", "id": 712215319, "nodes": [6696611448, 6696611447, 6696611446, 6696611445, 6696611444, 6696611443, 6696611448], "tags": {"building": "office", "name": "\u4e2d\u83ef\u96fb\u4fe1", "office": "telecommunication"}}]}