{"version": 0.6, "generator": "Overpass API 0.7.62.5 1bd436f1", "osm3s": {"timestamp_osm_base": "2025-05-27T07:04:24Z", "copyright": "The data included in this document is from www.openstreetmap.org. The data is made available under ODbL."}, "elements": [{"type": "node", "id": 8686440907, "lat": 23.1288778, "lon": 120.4813274}, {"type": "node", "id": 8686440908, "lat": 23.1288996, "lon": 120.4813515}, {"type": "node", "id": 8686440909, "lat": 23.128918, "lon": 120.4813318}, {"type": "node", "id": 8686440910, "lat": 23.1289376, "lon": 120.4813535}, {"type": "node", "id": 8686440911, "lat": 23.1289572, "lon": 120.4813326}, {"type": "node", "id": 8686440912, "lat": 23.1289159, "lon": 120.4812867}, {"type": "node", "id": 9681508505, "lat": 23.1313481, "lon": 120.4743103}, {"type": "node", "id": 9681508506, "lat": 23.1312319, "lon": 120.4742957}, {"type": "node", "id": 9681508507, "lat": 23.1311571, "lon": 120.4747329}, {"type": "node", "id": 9681508508, "lat": 23.1315164, "lon": 120.4747547}, {"type": "way", "id": 937507504, "nodes": [8686440912, 8686440911, 8686440910, 8686440909, 8686440908, 8686440907, 8686440912], "tags": {"amenity": "toilets", "building": "yes", "female": "yes", "male": "yes"}}, {"type": "way", "id": 1053491724, "nodes": [9681508505, 9681508506, 9681508507, 9681508508, 9681508505], "tags": {"addr:city": "\u81fa\u5357\u5e02", "addr:country": "TW", "addr:district": "\u7389\u4e95\u5340", "addr:housenumber": "288", "addr:street": "\u564d\u5427\u54d6\u6771\u8def", "amenity": "restaurant", "building": "yes", "name": "\u9ec3\u91d1\u854e\u9ea5\u63a2\u7d22\u9928"}}]}