{"version": 0.6, "generator": "Overpass API 0.7.62.5 1bd436f1", "osm3s": {"timestamp_osm_base": "2025-05-21T11:10:46Z", "copyright": "The data included in this document is from www.openstreetmap.org. The data is made available under ODbL."}, "elements": [{"type": "node", "id": 9064045941, "lat": 23.0556353, "lon": 120.2993066}, {"type": "node", "id": 9064045942, "lat": 23.0551871, "lon": 120.2992762}, {"type": "node", "id": 9064045943, "lat": 23.0551598, "lon": 120.2997517}, {"type": "node", "id": 9064045944, "lat": 23.0553083, "lon": 120.2997618}, {"type": "node", "id": 9064045945, "lat": 23.0553172, "lon": 120.2996075}, {"type": "node", "id": 9064045946, "lat": 23.0556168, "lon": 120.2996279}, {"type": "way", "id": 979811763, "nodes": [9064045941, 9064045942, 9064045943, 9064045944, 9064045945, 9064045946, 9064045941], "tags": {"addr:city": "\u81fa\u5357\u5e02", "addr:country": "TW", "addr:district": "\u65b0\u5316\u5340", "addr:housenumber": "1160", "addr:postcode": "712001", "addr:street": "\u4e2d\u6b63\u8def", "building": "yes", "fax": "+886 6 598 0349", "government": "yes", "name": "\u81fa\u5357\u5e02\u65b0\u5316\u5730\u653f\u4e8b\u52d9\u6240", "office": "government", "phone": "+886 6 597 4823", "website": "https://land.tainan.gov.tw/08/"}}]}