{"version": 0.6, "generator": "Overpass API 0.7.62.5 1bd436f1", "osm3s": {"timestamp_osm_base": "2025-05-27T07:06:29Z", "copyright": "The data included in this document is from www.openstreetmap.org. The data is made available under ODbL."}, "elements": [{"type": "node", "id": 5596428747, "lat": 22.9493707, "lon": 120.1743954}, {"type": "node", "id": 5596428748, "lat": 22.9490018, "lon": 120.1744419}, {"type": "node", "id": 5596428749, "lat": 22.9491006, "lon": 120.1750034}, {"type": "node", "id": 5596428750, "lat": 22.9494003, "lon": 120.1749784}, {"type": "node", "id": 11629674109, "lat": 22.9504284, "lon": 120.172456}, {"type": "node", "id": 11629674110, "lat": 22.9503101, "lon": 120.1724469}, {"type": "node", "id": 11629674111, "lat": 22.9503076, "lon": 120.1724839}, {"type": "node", "id": 11629674112, "lat": 22.950426, "lon": 120.1724931}, {"type": "way", "id": 585667638, "nodes": [5596428747, 5596428748, 5596428749, 5596428750, 5596428747], "tags": {"addr:city": "\u81fa\u5357\u5e02", "addr:country": "TW", "addr:district": "\u5357\u5340", "addr:housenumber": "759", "addr:postcode": "702", "addr:street": "\u9be4\u9bd3\u8def101\u5df7", "building": "yes", "name": "\u6d3b\u6c34\u6cc9\u6e90\u570b\u969b\u80a1\u4efd\u6709\u9650\u516c\u53f8", "office": "company", "phone": "+886 6 296 2000"}}, {"type": "way", "id": 1251062539, "nodes": [11629674109, 11629674110, 11629674111, 11629674112, 11629674109], "tags": {"amenity": "toilets", "building": "yes"}}]}