{"version": 0.6, "generator": "Overpass API 0.7.62.5 1bd436f1", "osm3s": {"timestamp_osm_base": "2025-05-26T12:33:17Z", "copyright": "The data included in this document is from www.openstreetmap.org. The data is made available under ODbL."}, "elements": [{"type": "node", "id": 4891364736, "lat": 23.1801486, "lon": 120.4829083}, {"type": "node", "id": 9681548420, "lat": 23.1837227, "lon": 120.489265}, {"type": "node", "id": 9681548421, "lat": 23.1832685, "lon": 120.4893467}, {"type": "node", "id": 9681548422, "lat": 23.1833101, "lon": 120.4896198}, {"type": "node", "id": 9681548423, "lat": 23.1837642, "lon": 120.489538}, {"type": "node", "id": 12537608264, "lat": 23.18023, "lon": 120.4828112}, {"type": "node", "id": 12537608265, "lat": 23.1800722, "lon": 120.4827979}, {"type": "node", "id": 12537608266, "lat": 23.1800649, "lon": 120.4829012}, {"type": "node", "id": 12537608267, "lat": 23.1802227, "lon": 120.4829145}, {"type": "node", "id": 12537608268, "lat": 23.1782218, "lon": 120.4863176}, {"type": "node", "id": 12537608269, "lat": 23.1782113, "lon": 120.4863983}, {"type": "node", "id": 12537608270, "lat": 23.1780183, "lon": 120.4863685}, {"type": "node", "id": 12537608271, "lat": 23.1780288, "lon": 120.4862878}, {"type": "way", "id": 1053491726, "nodes": [9681548420, 9681548421, 9681548422, 9681548423, 9681548420], "tags": {"amenity": "restaurant", "building": "yes", "name": "\u7da0\u67cf\u5712\u679c\u5bb4\u9910\u5ef3"}}, {"type": "way", "id": 1354786092, "nodes": [12537608264, 12537608265, 12537608266, 4891364736, 12537608267, 12537608264], "tags": {"addr:city": "\u81fa\u5357\u5e02", "addr:country": "TW", "addr:district": "\u6960\u897f\u5340", "addr:full": "\u81fa\u5357\u5e02\u6960\u897f\u5340\u6c11\u65cf\u8def128\u865f", "addr:housenumber": "128", "addr:street": "\u6c11\u65cf\u8def", "amenity": "community_centre", "building": "yes", "emergency": "assembly_point", "emergency:amenity": "social_facility", "emergency:shelter_type": "\u6c34\u707d,\u571f\u77f3\u6d41", "emergency:social_facility": "shelter", "emergency:social_facility:association_villages": "\u5168\u5340\u542b\u6771\u5c71\u5340\u5357\u52e2\u91cc", "emergency:social_facility:for": "displaced_people", "emergency:social_facility:id": "4947", "emergency:social_facility:source": "\u5167\u653f\u90e8\u6d88\u9632\u7f72", "evacuation_center": "yes", "name": "\u6960\u897f\u5340\u8001\u4eba\u6587\u5eb7\u6d3b\u52d5\u4e2d\u5fc3", "official_name": "\u81fa\u5357\u5e02\u6960\u897f\u5340\u8001\u4eba\u6587\u5eb7\u6d3b\u52d5\u4e2d\u5fc3"}}, {"type": "way", "id": 1354786093, "nodes": [12537608268, 12537608269, 12537608270, 12537608271, 12537608268], "tags": {"amenity": "community_centre", "building": "yes", "name": "\u6771\u52e2\u91cc\u6c11\u6d3b\u52d5\u4e2d\u5fc3"}}]}