{"version": 0.6, "generator": "Overpass API 0.7.62.5 1bd436f1", "osm3s": {"timestamp_osm_base": "2025-05-21T08:49:59Z", "copyright": "The data included in this document is from www.openstreetmap.org. The data is made available under ODbL."}, "elements": [{"type": "node", "id": 7450708238, "lat": 23.190072, "lon": 120.191044}, {"type": "node", "id": 7450708239, "lat": 23.1900494, "lon": 120.1914525}, {"type": "node", "id": 7450708240, "lat": 23.1895505, "lon": 120.1914197}, {"type": "node", "id": 7450708241, "lat": 23.1895567, "lon": 120.1913094}, {"type": "node", "id": 7450708242, "lat": 23.1895207, "lon": 120.1913071}, {"type": "node", "id": 7450708243, "lat": 23.1895287, "lon": 120.1911628}, {"type": "node", "id": 7450708244, "lat": 23.1895761, "lon": 120.191166}, {"type": "node", "id": 7450708245, "lat": 23.1895847, "lon": 120.1910121}, {"type": "node", "id": 10129334241, "lat": 23.1895953, "lon": 120.1905513}, {"type": "node", "id": 10129334242, "lat": 23.1894024, "lon": 120.1905506}, {"type": "node", "id": 10129334243, "lat": 23.1894022, "lon": 120.1906426}, {"type": "node", "id": 10129334244, "lat": 23.1895951, "lon": 120.1906433}, {"type": "node", "id": 12458008584, "lat": 23.1876998, "lon": 120.1937496}, {"type": "node", "id": 12458008585, "lat": 23.1876926, "lon": 120.1938521}, {"type": "node", "id": 12458008586, "lat": 23.1875061, "lon": 120.1938366}, {"type": "node", "id": 12458008587, "lat": 23.1875132, "lon": 120.1937342}, {"type": "way", "id": 796692348, "nodes": [7450708238, 7450708239, 7450708240, 7450708241, 7450708242, 7450708243, 7450708244, 7450708245, 7450708238], "tags": {"building": "yes"}}, {"type": "way", "id": 1106986426, "nodes": [10129334241, 10129334242, 10129334243, 10129334244, 10129334241], "tags": {"addr:city": "\u81fa\u5357\u5e02", "addr:country": "TW", "addr:district": "\u4f73\u91cc\u5340", "addr:housenumber": "196\u4e4b27", "addr:place": "\u4f73\u91cc\u8208", "branch": "\u4f73\u91cc\u4f73\u91cc\u8208\u5e97", "brand": "\u7f8e\u5ec9\u793e", "brand:en": "Simple Mart", "brand:nan": "B\u00ed-li\u00e2m-si\u0101", "brand:nan-Hant": "\u7f8e\u5ec9\u793e", "brand:nan-Latn-pehoeji": "B\u00ed-li\u00e2m-si\u0101", "brand:nan-Latn-tailo": "B\u00ed-li\u00e2m-si\u0101", "brand:wikidata": "Q15914017", "brand:zh": "\u7f8e\u5ec9\u793e", "building": "yes", "name": "\u7f8e\u5ec9\u793e", "name:en": "Simple Mart", "name:nan": "B\u00ed-li\u00e2m-si\u0101", "name:nan-Hant": "\u7f8e\u5ec9\u793e", "name:nan-Latn-pehoeji": "B\u00ed-li\u00e2m-si\u0101", "name:nan-Latn-tailo": "B\u00ed-li\u00e2m-si\u0101", "name:zh": "\u7f8e\u5ec9\u793e", "opening_hours": "Mo-Sa 07:00-24:00", "shop": "supermarket"}}, {"type": "way", "id": 1346809610, "nodes": [12458008584, 12458008585, 12458008586, 12458008587, 12458008584], "tags": {"addr:city": "\u81fa\u5357\u5e02", "addr:country": "TW", "addr:district": "\u4f73\u91cc\u5340", "addr:housenumber": "35", "addr:street": "\u4f73\u8208\u4e09\u8857", "amenity": "community_centre", "building": "yes", "name": "\u4f73\u5316\u91cc\u6d3b\u52d5\u4e2d\u5fc3"}}]}