{"version": 0.6, "generator": "Overpass API 0.7.62.5 1bd436f1", "osm3s": {"timestamp_osm_base": "2025-05-26T11:52:20Z", "copyright": "The data included in this document is from www.openstreetmap.org. The data is made available under ODbL."}, "elements": [{"type": "node", "id": 2781004548, "lat": 22.6016919, "lon": 120.4163862}, {"type": "node", "id": 2781004550, "lat": 22.6010168, "lon": 120.4168798}, {"type": "node", "id": 2781004551, "lat": 22.6011758, "lon": 120.4169061}, {"type": "node", "id": 2781004553, "lat": 22.6011922, "lon": 120.4167903}, {"type": "node", "id": 2781004555, "lat": 22.6010485, "lon": 120.4167666}, {"type": "node", "id": 2781004556, "lat": 22.6014536, "lon": 120.4173274}, {"type": "node", "id": 2781004558, "lat": 22.6009651, "lon": 120.4172466}, {"type": "node", "id": 2781004559, "lat": 22.6014757, "lon": 120.4171709}, {"type": "node", "id": 2781004560, "lat": 22.6015788, "lon": 120.417188}, {"type": "node", "id": 2781004562, "lat": 22.6011156, "lon": 120.4162909}, {"type": "node", "id": 12123684030, "lat": 22.6007073, "lon": 120.4216975}, {"type": "node", "id": 12123684031, "lat": 22.6005556, "lon": 120.4216799}, {"type": "node", "id": 12123684032, "lat": 22.6005323, "lon": 120.4219166}, {"type": "node", "id": 12123684033, "lat": 22.600684, "lon": 120.4219341}, {"type": "way", "id": 273217687, "nodes": [2781004548, 2781004560, 2781004559, 2781004556, 2781004558, 2781004550, 2781004551, 2781004553, 2781004555, 2781004562, 2781004548], "tags": {"building": "manufacture", "name": "Kinlin "}}, {"type": "way", "id": 1309214741, "nodes": [12123684030, 12123684031, 12123684032, 12123684033, 12123684030], "tags": {"addr:city": "\u9ad8\u96c4\u5e02", "addr:country": "TW", "addr:district": "\u5927\u5bee\u5340", "addr:housenumber": "140", "addr:street": "\u4e0a\u5bee\u8def", "amenity": "community_centre", "building": "yes", "name": "\u4e0a\u5bee\u7d9c\u5408\u6d3b\u52d5\u4e2d\u5fc3"}}]}