{"version": 0.6, "generator": "Overpass API 0.7.62.5 1bd436f1", "osm3s": {"timestamp_osm_base": "2025-05-26T11:34:45Z", "copyright": "The data included in this document is from www.openstreetmap.org. The data is made available under ODbL."}, "elements": [{"type": "node", "id": 5339062325, "lat": 22.6890005, "lon": 120.337933}, {"type": "node", "id": 5339062326, "lat": 22.6888984, "lon": 120.338111}, {"type": "node", "id": 5339062327, "lat": 22.688898, "lon": 120.3388742}, {"type": "node", "id": 5339062328, "lat": 22.6889677, "lon": 120.3389572}, {"type": "node", "id": 5339062330, "lat": 22.6893143, "lon": 120.3389723}, {"type": "node", "id": 5339062331, "lat": 22.6893909, "lon": 120.3388817}, {"type": "node", "id": 5339062332, "lat": 22.6894055, "lon": 120.3380793}, {"type": "node", "id": 5339062333, "lat": 22.6893362, "lon": 120.337933}, {"type": "node", "id": 7934516311, "lat": 22.6916998, "lon": 120.3395228}, {"type": "node", "id": 7934516312, "lat": 22.691468, "lon": 120.3398695}, {"type": "node", "id": 7934516313, "lat": 22.6913316, "lon": 120.3397624}, {"type": "node", "id": 7934516314, "lat": 22.6915633, "lon": 120.3394156}, {"type": "node", "id": 12174181732, "lat": 22.6923165, "lon": 120.3361812}, {"type": "node", "id": 12174181733, "lat": 22.6922525, "lon": 120.3360859}, {"type": "node", "id": 12174181734, "lat": 22.6921078, "lon": 120.3361999}, {"type": "node", "id": 12174181735, "lat": 22.6921718, "lon": 120.3362953}, {"type": "node", "id": 12174181756, "lat": 22.6867747, "lon": 120.3394413}, {"type": "node", "id": 12174181757, "lat": 22.6866333, "lon": 120.33939}, {"type": "node", "id": 12174181758, "lat": 22.6865624, "lon": 120.3396199}, {"type": "node", "id": 12174181759, "lat": 22.6867037, "lon": 120.3396711}, {"type": "way", "id": 553061543, "nodes": [5339062325, 5339062326, 5339062327, 5339062328, 5339062330, 5339062331, 5339062332, 5339062333, 5339062325], "tags": {"building": "yes", "leisure": "ice_rink", "name": "\u9ad8\u96c4\u570b\u969b\u6ed1\u8f2a\u6e9c\u51b0\u5834"}}, {"type": "way", "id": 850493961, "nodes": [7934516311, 7934516312, 7934516313, 7934516314, 7934516311], "tags": {"addr:city": "\u9ad8\u96c4\u5e02", "addr:country": "TW", "addr:district": "\u4ec1\u6b66\u5340", "addr:housenumber": "108", "addr:postcode": "814", "addr:street": "\u516b\u5fb7\u4e00\u8def", "amenity": "social_facility", "building": "yes", "name": "\u79c1\u7acb\u8056\u7fc1\u8b77\u7406\u4e4b\u5bb6", "social_facility": "group_home", "social_facility:for": "senior"}}, {"type": "way", "id": 1315244137, "nodes": [12174181732, 12174181733, 12174181734, 12174181735, 12174181732], "tags": {"addr:city": "\u9ad8\u96c4\u5e02", "addr:country": "TW", "addr:district": "\u4ec1\u6b66\u5340", "addr:housenumber": "1870-1", "addr:street": "\u516b\u5fb7\u897f\u8def", "branch": "\u5f97\u6c38\u9580\u5e02", "brand": "7-Eleven", "brand:wikidata": "Q259340", "building": "yes", "name": "7-Eleven", "opening_hours": "24/7", "shop": "convenience"}}, {"type": "way", "id": 1315244150, "nodes": [12174181756, 12174181757, 12174181758, 12174181759, 12174181756], "tags": {"amenity": "community_centre", "building": "yes", "name": "\u516b\u5366\u793e\u5340\u6d3b\u52d5\u4e2d\u5fc3"}}]}