{"version": 0.6, "generator": "Overpass API 0.7.62.5 1bd436f1", "osm3s": {"timestamp_osm_base": "2025-05-26T11:46:04Z", "copyright": "The data included in this document is from www.openstreetmap.org. The data is made available under ODbL."}, "elements": [{"type": "node", "id": 7194863344, "lat": 22.8534077, "lon": 120.3573471}, {"type": "node", "id": 7194871423, "lat": 22.8536229, "lon": 120.3566683}, {"type": "node", "id": 7194871424, "lat": 22.8536535, "lon": 120.3569912}, {"type": "node", "id": 7194871425, "lat": 22.8533783, "lon": 120.3569961}, {"type": "node", "id": 7194871427, "lat": 22.8526904, "lon": 120.3572792}, {"type": "node", "id": 7194871428, "lat": 22.8530879, "lon": 120.3572888}, {"type": "node", "id": 7194871429, "lat": 22.8530661, "lon": 120.3569404}, {"type": "node", "id": 7194871430, "lat": 22.8533695, "lon": 120.3569177}, {"type": "node", "id": 7194871431, "lat": 22.8533449, "lon": 120.3566855}, {"type": "node", "id": 7194871433, "lat": 22.8534076, "lon": 120.3574498}, {"type": "node", "id": 10596021288, "lat": 22.8597744, "lon": 120.3585088}, {"type": "node", "id": 10596021289, "lat": 22.8596155, "lon": 120.3586086}, {"type": "node", "id": 10596021290, "lat": 22.8596503, "lon": 120.3586658}, {"type": "node", "id": 10596021291, "lat": 22.8595968, "lon": 120.3587181}, {"type": "node", "id": 10596021292, "lat": 22.8594655, "lon": 120.3585108}, {"type": "node", "id": 10596021293, "lat": 22.8595191, "lon": 120.3584739}, {"type": "node", "id": 10596021294, "lat": 22.8595379, "lon": 120.3585069}, {"type": "node", "id": 10596021295, "lat": 22.8597093, "lon": 120.3583984}, {"type": "node", "id": 10596021312, "lat": 22.8527164, "lon": 120.3575476}, {"type": "node", "id": 10596021313, "lat": 22.8529343, "lon": 120.3575381}, {"type": "node", "id": 10596021314, "lat": 22.8529327, "lon": 120.3574427}, {"type": "way", "id": 1136676678, "nodes": [10596021288, 10596021289, 10596021290, 10596021291, 10596021292, 10596021293, 10596021294, 10596021295, 10596021288], "tags": {"addr:city": "\u9ad8\u96c4\u5e02", "addr:country": "TW", "addr:district": "\u7530\u5bee\u5340", "addr:full": "\u9ad8\u96c4\u5e02\u7530\u5bee\u5340\u5d17\u5b89\u8def41\u865f", "addr:housenumber": "41", "addr:postcode": "823004", "addr:street": "\u5d17\u5b89\u8def", "addr:village": "\u5357\u5b89\u91cc", "amenity": "place_of_worship", "building": "religious", "name": "\u7389\u4eac\u5c71\u5929\u5b98", "religion": "taoist"}}, {"type": "way", "id": 1136676681, "nodes": [7194871425, 7194871430, 7194871431, 7194871423, 7194871424, 7194871425], "tags": {"addr:city": "\u9ad8\u96c4\u5e02", "addr:country": "TW", "addr:district": "\u7530\u5bee\u5340", "addr:full": "\u9ad8\u96c4\u5e02\u7530\u5bee\u5340\u5d17\u5b89\u8def14\u865f", "addr:housenumber": "14", "addr:postcode": "823004", "addr:street": "\u5d17\u5b89\u8def", "addr:village": "\u5357\u5b89\u91cc", "amenity": "place_of_worship", "building": "yes", "name": "\u671d\u5143\u5bfa", "religion": "buddhist"}}, {"type": "way", "id": 1136676682, "nodes": [7194871430, 7194871429, 7194871428, 7194871427, 10596021312, 10596021313, 10596021314, 7194871433, 7194863344, 7194871425, 7194871430], "tags": {"addr:city": "\u9ad8\u96c4\u5e02", "addr:country": "TW", "addr:district": "\u7530\u5bee\u5340", "addr:full": "\u9ad8\u96c4\u5e02\u7530\u5bee\u5340\u5357\u5b89\u91cc\u5d17\u5b89\u8def13\u865f", "addr:housenumber": "13", "addr:postcode": "823004", "addr:street": "\u5d17\u5b89\u8def", "addr:village": "\u5357\u5b89\u91cc", "amenity": "place_of_worship", "building": "yes", "name": "\u6cd5\u83ef\u8056\u5802", "religion": "yiguandao"}}]}