{"version": 0.6, "generator": "Overpass API 0.7.62.5 1bd436f1", "osm3s": {"timestamp_osm_base": "2025-05-21T10:54:30Z", "copyright": "The data included in this document is from www.openstreetmap.org. The data is made available under ODbL."}, "elements": [{"type": "node", "id": 1990865131, "lat": 22.9417249, "lon": 120.261646}, {"type": "node", "id": 1990865142, "lat": 22.941757, "lon": 120.2615285}, {"type": "node", "id": 1990865166, "lat": 22.9417101, "lon": 120.2617841}, {"type": "node", "id": 1990865168, "lat": 22.9419479, "lon": 120.2618347}, {"type": "node", "id": 1990865171, "lat": 22.9419208, "lon": 120.2615719}, {"type": "node", "id": 7631342785, "lat": 22.9417399, "lon": 120.2616581}, {"type": "node", "id": 12808875705, "lat": 22.9419231, "lon": 120.2616293}, {"type": "node", "id": 12808875706, "lat": 22.9419653, "lon": 120.2616263}, {"type": "way", "id": 188457275, "nodes": [1990865166, 7631342785, 1990865131, 1990865142, 1990865171, 12808875705, 12808875706, 1990865168, 1990865166], "tags": {"addr:city": "\u81fa\u5357\u5e02", "addr:country": "TW", "addr:district": "\u4ec1\u5fb7\u5340", "addr:full": "\u81fa\u5357\u5e02\u4ec1\u5fb7\u5340\u4e0a\u5d19\u91cc5\u9130\u5fb7\u5d19\u8def456\u865f", "addr:hamlet": "\u4e0a\u5d19\u91cc", "addr:housenumber": "456", "addr:neighbourhood": "5", "addr:postcode": "717", "addr:street": "\u5fb7\u5d19\u8def", "amenity": "place_of_worship", "building": "temple", "name": "\u4e0a\u5d19\u4ed4\u5d11\u5d19\u5bae", "religion": "taoist"}}]}