{"version": 0.6, "generator": "Overpass API 0.7.62.5 1bd436f1", "osm3s": {"timestamp_osm_base": "2025-05-21T08:36:44Z", "copyright": "The data included in this document is from www.openstreetmap.org. The data is made available under ODbL."}, "elements": [{"type": "node", "id": 7739217358, "lat": 22.6048536, "lon": 120.3887133}, {"type": "node", "id": 7739217359, "lat": 22.6046031, "lon": 120.3890739}, {"type": "node", "id": 7739217360, "lat": 22.6045196, "lon": 120.3890964}, {"type": "node", "id": 7739217363, "lat": 22.6044202, "lon": 120.3890469}, {"type": "node", "id": 7739217364, "lat": 22.6041726, "lon": 120.3888696}, {"type": "node", "id": 7739217365, "lat": 22.60419, "lon": 120.3888411}, {"type": "node", "id": 7739217366, "lat": 22.6041286, "lon": 120.3887477}, {"type": "node", "id": 7739217367, "lat": 22.6044278, "lon": 120.3883712}, {"type": "way", "id": 829104027, "nodes": [7739217358, 7739217359, 7739217360, 7739217363, 7739217364, 7739217365, 7739217366, 7739217367, 7739217358], "tags": {"addr:city": "\u9ad8\u96c4\u5e02", "addr:country": "TW", "addr:district": "\u5927\u5bee\u5340", "addr:housenumber": "151", "addr:place": "\u6c38\u82b3\u91cc\u9032\u5b78\u8def", "addr:postcode": "831", "building": "stadium", "building:levels": "6", "name": "\u5927\u5bee\u904b\u52d5\u4e2d\u5fc3", "operator": "\u9ad8\u96c4\u5e02\u653f\u5e9c", "operator:type": "government", "smoking": "no", "sport": "basketball;volleyball;fitness;table_tennis;yoga;badminton;billiards", "start_date": "2022-04-28", "website": "https://www.facebook.com/KDLSC/?locale=zh_TW"}}]}