{"version": 0.6, "generator": "Overpass API 0.7.62.5 1bd436f1", "osm3s": {"timestamp_osm_base": "2025-05-21T11:12:52Z", "copyright": "The data included in this document is from www.openstreetmap.org. The data is made available under ODbL."}, "elements": [{"type": "node", "id": 3991710103, "lat": 23.0518507, "lon": 120.4196309}, {"type": "node", "id": 3991710104, "lat": 23.0518755, "lon": 120.4194747}, {"type": "node", "id": 3991710105, "lat": 23.0519017, "lon": 120.4193603}, {"type": "node", "id": 3991710109, "lat": 23.0520711, "lon": 120.4196863}, {"type": "node", "id": 3991710110, "lat": 23.0521262, "lon": 120.4194135}, {"type": "way", "id": 396359940, "nodes": [3991710104, 3991710105, 3991710110, 3991710109, 3991710103, 3991710104], "tags": {"addr:city": "\u81fa\u5357\u5e02", "addr:country": "TW", "addr:district": "\u5de6\u93ae\u5340", "addr:full": "\u81fa\u5357\u5e02\u5de6\u93ae\u5340\u7766\u514946-2\u865f", "addr:housenumber": "46-2", "addr:place": "\u7766\u5149", "addr:village": "\u7766\u5149\u91cc", "amenity": "place_of_worship", "building": "temple", "description:emergency": "\u7766\u5149\u91cc\u3001\u5167\u5e84\u91cc", "emergency:amenity": "social_facility", "emergency:shelter_type": "\u6c34\u707d", "emergency:social_facility:capacity": "30", "emergency:social_facility:code": "SD713-0005", "emergency:social_facility:id": "4925", "isIndoor": "yes", "isOutdoor": "no", "name": "\u81fa\u5357\u5e02\u5de6\u93ae\u5340\u4e09\u5b98\u5927\u5e1d\u5edf", "religion": "taoist"}}]}