{"version": 0.6, "generator": "Overpass API 0.7.62.5 1bd436f1", "osm3s": {"timestamp_osm_base": "2025-05-26T11:46:04Z", "copyright": "The data included in this document is from www.openstreetmap.org. The data is made available under ODbL."}, "elements": [{"type": "node", "id": 69709127, "lat": 22.9784896, "lon": 120.1705575}, {"type": "node", "id": 71638235, "lat": 22.9782127, "lon": 120.1705209}, {"type": "node", "id": 2653355374, "lat": 22.9841367, "lon": 120.1746787}, {"type": "node", "id": 2653355377, "lat": 22.9841941, "lon": 120.1742203}, {"type": "node", "id": 2653355381, "lat": 22.9844473, "lon": 120.1747186}, {"type": "node", "id": 2653355383, "lat": 22.9844762, "lon": 120.1746994}, {"type": "node", "id": 2653355385, "lat": 22.9845276, "lon": 120.1742687}, {"type": "node", "id": 5024379128, "lat": 22.9837631, "lon": 120.1745005}, {"type": "node", "id": 7977817377, "lat": 22.9782426, "lon": 120.1729236}, {"type": "node", "id": 7977817378, "lat": 22.9800616, "lon": 120.1707771}, {"type": "node", "id": 7977817379, "lat": 22.9798109, "lon": 120.1731432}, {"type": "node", "id": 7977817380, "lat": 22.9805078, "lon": 120.1722341}, {"type": "node", "id": 7977817381, "lat": 22.980171, "lon": 120.1721935}, {"type": "node", "id": 7977817382, "lat": 22.9801223, "lon": 120.1726976}, {"type": "node", "id": 7977817383, "lat": 22.9804551, "lon": 120.1727448}, {"type": "node", "id": 8862629892, "lat": 22.9810741, "lon": 120.176212}, {"type": "node", "id": 8862629893, "lat": 22.980837, "lon": 120.1761838}, {"type": "node", "id": 8862629894, "lat": 22.9809099, "lon": 120.1755173}, {"type": "node", "id": 8862629895, "lat": 22.9811481, "lon": 120.1755414}, {"type": "node", "id": 9198709207, "lat": 22.9840139, "lon": 120.1744282}, {"type": "node", "id": 9198709208, "lat": 22.983778, "lon": 120.1743888}, {"type": "node", "id": 9198709209, "lat": 22.9837488, "lon": 120.1745953}, {"type": "node", "id": 9198709210, "lat": 22.9839847, "lon": 120.1746347}, {"type": "node", "id": 9198709211, "lat": 22.9840689, "lon": 120.1736808}, {"type": "node", "id": 9198709212, "lat": 22.9839546, "lon": 120.1736588}, {"type": "node", "id": 9198709213, "lat": 22.9839243, "lon": 120.173844}, {"type": "node", "id": 9198709214, "lat": 22.9840387, "lon": 120.173866}, {"type": "node", "id": 9198709215, "lat": 22.9839391, "lon": 120.1737534}, {"type": "node", "id": 9917575334, "lat": 22.9818462, "lon": 120.1746103}, {"type": "node", "id": 9917575335, "lat": 22.981178, "lon": 120.1744952}, {"type": "node", "id": 9917575336, "lat": 22.9812564, "lon": 120.1740448}, {"type": "node", "id": 9917575337, "lat": 22.9819291, "lon": 120.1741549}, {"type": "way", "id": 159974507, "nodes": [2653355374, 2653355377, 2653355385, 2653355383, 2653355381, 2653355374], "tags": {"addr:city": "\u53f0\u5357\u5e02", "addr:country": "TW", "addr:district": "\u5b89\u5e73\u5340", "addr:housenumber": "239", "addr:postcode": "708", "addr:street": "\u5efa\u5e73\u4e00\u8857", "building": "yes", "name": "\u8377\u862d\u6751\u6c7d\u8eca\u65c5\u9928", "tourism": "motel"}}, {"type": "way", "id": 855494097, "nodes": [7977817378, 69709127, 71638235, 7977817377, 7977817379, 7977817378], "tags": {"amenity": "fire_station", "building": "yes", "name": "\u5167\u653f\u90e8\u6d88\u9632\u7f72 \u9ad8\u96c4\u6e2f\u52d9\u6d88\u9632\u968a \u5b89\u5e73\u6e2f\u5206\u968a \u78bc\u982d"}}, {"type": "way", "id": 855494098, "nodes": [7977817380, 7977817381, 7977817382, 7977817383, 7977817380], "tags": {"amenity": "fire_station", "building": "yes", "name": "\u5167\u653f\u90e8\u6d88\u9632\u7f72 \u9ad8\u96c4\u6e2f\u52d9\u6d88\u9632\u968a \u5b89\u5e73\u6e2f\u5206\u968a"}}, {"type": "way", "id": 957812975, "nodes": [8862629892, 8862629893, 8862629894, 8862629895, 8862629892], "tags": {"alt_name": "\u5e9c\u57ce\u4e00\u6b21\u914d\u96fb\u8b8a\u96fb\u6240;\u5e9c\u57ceD/S", "building": "service", "name": "\u5e9c\u57ce\u8b8a\u96fb\u6240", "operator": "\u53f0\u7063\u96fb\u529b\u516c\u53f8", "power": "substation", "start_date": "2018-09-27", "substation": "distribution", "voltage": "161000"}}, {"type": "way", "id": 996188651, "nodes": [9198709207, 9198709208, 5024379128, 9198709209, 9198709210, 9198709207], "tags": {"addr:city": "\u81fa\u5357\u5e02", "addr:country": "TW", "addr:district": "\u5b89\u5e73\u5340", "addr:hamlet": "\u570b\u5e73\u91cc", "addr:housenumber": "236", "addr:postcode": "708", "addr:street": "\u5065\u5eb7\u8def\u4e09\u6bb5", "amenity": "fuel", "branch": "\u5065\u5eb7\u8def\u7ad9", "brand": "\u53f0\u7063\u4e2d\u6cb9", "brand:en": "CPC Corporation, Taiwan", "brand:wikidata": "Q698024", "brand:zh": "\u53f0\u7063\u4e2d\u6cb9", "building": "yes", "name": "\u53f0\u7063\u4e2d\u6cb9", "name:en": "CPC Corporation, Taiwan", "name:zh": "\u53f0\u7063\u4e2d\u6cb9", "opening_hours": "24/7"}}, {"type": "way", "id": 996188652, "nodes": [9198709211, 9198709212, 9198709215, 9198709213, 9198709214, 9198709211], "tags": {"addr:city": "\u81fa\u5357\u5e02", "addr:country": "TW", "addr:district": "\u5b89\u5e73\u5340", "addr:full": "\u81fa\u5357\u5e02\u5b89\u5e73\u5340\u570b\u5e73\u91cc17\u9130\u5065\u5eb7\u8def\u4e09\u6bb5242\u865f", "addr:hamlet": "\u570b\u5e73\u91cc", "addr:housenumber": "242", "addr:neighbourhood": "17", "addr:postcode": "708", "addr:street": "\u5065\u5eb7\u8def\u4e09\u6bb5", "atm": "yes", "branch": "\u83ef\u5e73\u9580\u5e02", "brand": "7-Eleven", "brand:en": "7-Eleven", "brand:wikidata": "Q259340", "brand:wikipedia": "en:7-Eleven", "building": "yes", "level": "1", "name": "7-Eleven", "shop": "convenience", "toilets": "yes", "toilets:access": "customers", "wheelchair": "limited"}}, {"type": "way", "id": 1082146314, "nodes": [9917575334, 9917575335, 9917575336, 9917575337, 9917575334], "tags": {"building": "service", "name": "\u5b89\u5e73\u518d\u751f\u6c34\u5ee0", "start_date": "2023-03-20"}}]}