{"version": 0.6, "generator": "Overpass API 0.7.62.5 1bd436f1", "osm3s": {"timestamp_osm_base": "2025-05-21T08:16:15Z", "copyright": "The data included in this document is from www.openstreetmap.org. The data is made available under ODbL."}, "elements": [{"type": "node", "id": 2971275161, "lat": 22.8249103, "lon": 120.4056896}, {"type": "node", "id": 10836212805, "lat": 22.824974, "lon": 120.4055426}, {"type": "node", "id": 11039904407, "lat": 22.8249482, "lon": 120.4058755}, {"type": "node", "id": 11039904408, "lat": 22.8250018, "lon": 120.4057517}, {"type": "node", "id": 11039904409, "lat": 22.8250324, "lon": 120.4057673}, {"type": "node", "id": 11039904410, "lat": 22.825052, "lon": 120.405722}, {"type": "node", "id": 11039904411, "lat": 22.8250236, "lon": 120.4057075}, {"type": "node", "id": 11039904412, "lat": 22.8250791, "lon": 120.405579}, {"type": "node", "id": 11039904413, "lat": 22.8250224, "lon": 120.4055502}, {"type": "node", "id": 11039904414, "lat": 22.8250164, "lon": 120.4055642}, {"type": "node", "id": 11039904415, "lat": 22.8249262, "lon": 120.4056977}, {"type": "node", "id": 11039904416, "lat": 22.8248671, "lon": 120.4058342}, {"type": "node", "id": 11039904417, "lat": 22.8249115, "lon": 120.40609}, {"type": "node", "id": 11039904418, "lat": 22.8249721, "lon": 120.4060279}, {"type": "node", "id": 11039904419, "lat": 22.8247803, "lon": 120.4059392}, {"type": "node", "id": 11039904420, "lat": 22.8248409, "lon": 120.4058771}, {"type": "way", "id": 1188943000, "nodes": [10836212805, 2971275161, 11039904415, 11039904416, 11039904407, 11039904408, 11039904409, 11039904410, 11039904411, 11039904412, 11039904413, 11039904414, 10836212805], "tags": {"addr:city": "\u9ad8\u96c4\u5e02", "addr:country": "TW", "addr:district": "\u7530\u5bee\u5340", "addr:housenumber": "15\u4e4b1", "addr:postcode": "823", "addr:street": "\u4e03\u661f\u8def", "amenity": "fire_station", "building": "yes", "name": "\u7530\u5bee\u5206\u968a", "network": "\u9ad8\u96c4\u5e02\u6d88\u9632\u5c40", "network:en": "Kaohsiung Fire Station", "official_name": "\u9ad8\u96c4\u5e02\u653f\u5e9c\u6d88\u9632\u5c40\u7b2c\u4e94\u5927\u968a\u7530\u5bee\u5206\u968a", "opening_hours": "24/7", "operator": "\u9ad8\u96c4\u5e02\u653f\u5e9c\u6d88\u9632\u5c40", "phone": "+886 7 636 2081"}}, {"type": "way", "id": 1188943001, "nodes": [11039904418, 11039904417, 11039904419, 11039904420, 11039904418], "tags": {"building": "yes"}}]}