{"version": 0.6, "generator": "Overpass API 0.7.62.5 1bd436f1", "osm3s": {"timestamp_osm_base": "2025-05-26T12:31:16Z", "copyright": "The data included in this document is from www.openstreetmap.org. The data is made available under ODbL."}, "elements": [{"type": "node", "id": 5071899575, "lat": 22.5498294, "lon": 120.5363287}, {"type": "node", "id": 5071899576, "lat": 22.5499223, "lon": 120.536385}, {"type": "node", "id": 5071899577, "lat": 22.5500053, "lon": 120.5364159}, {"type": "node", "id": 5071899578, "lat": 22.5501353, "lon": 120.5364159}, {"type": "node", "id": 5071899579, "lat": 22.550248, "lon": 120.5363595}, {"type": "node", "id": 5071899580, "lat": 22.5504908, "lon": 120.5363823}, {"type": "node", "id": 5071899581, "lat": 22.5505478, "lon": 120.5358151}, {"type": "node", "id": 5071899582, "lat": 22.5496808, "lon": 120.5357265}, {"type": "node", "id": 5071899583, "lat": 22.5496213, "lon": 120.5362912}, {"type": "node", "id": 10628105237, "lat": 22.5506907, "lon": 120.5348452}, {"type": "node", "id": 10628105238, "lat": 22.5505931, "lon": 120.5348647}, {"type": "node", "id": 10628105239, "lat": 22.5505725, "lon": 120.5347551}, {"type": "node", "id": 10628105240, "lat": 22.5507314, "lon": 120.5350837}, {"type": "node", "id": 10628105241, "lat": 22.5501937, "lon": 120.5351911}, {"type": "node", "id": 10628105242, "lat": 22.5501333, "lon": 120.5348364}, {"type": "node", "id": 10628105243, "lat": 22.5498126, "lon": 120.5352712}, {"type": "node", "id": 10628105244, "lat": 22.549597, "lon": 120.5352499}, {"type": "node", "id": 10628105245, "lat": 22.5495927, "lon": 120.5353013}, {"type": "node", "id": 10628105246, "lat": 22.5498082, "lon": 120.5353226}, {"type": "node", "id": 10628105247, "lat": 22.5503594, "lon": 120.5355744}, {"type": "node", "id": 10628105248, "lat": 22.5494976, "lon": 120.5354891}, {"type": "node", "id": 10628105249, "lat": 22.5495141, "lon": 120.5352935}, {"type": "node", "id": 10628105250, "lat": 22.5503759, "lon": 120.5353788}, {"type": "way", "id": 520359969, "nodes": [5071899583, 5071899582, 5071899581, 5071899580, 5071899579, 5071899578, 5071899577, 5071899576, 5071899575, 5071899583], "tags": {"addr:city": "\u5c4f\u6771\u7e23", "addr:country": "TW", "addr:district": "\u6f6e\u5dde\u93ae", "addr:housenumber": "111", "addr:province": "\u53f0\u7063\u7701", "addr:street": "\u4fe1\u7fa9\u8def", "building": "train_station", "name": "\u6f6e\u5dde\u706b\u8eca\u7ad9", "name:en": "Chaozhou Station", "name:zh": "\u6f6e\u5dde\u706b\u8eca\u7ad9", "name:zh-Bopo": "\u3114\u3120\u02ca\u3113\u3121\u310f\u3128\u311b\u02c7\u3114\u311c\u3113\u3122\u02cb", "name:zh-Hans": "\u6f6e\u5dde\u706b\u8f66\u7ad9", "name:zh-Hant": "\u6f6e\u5dde\u706b\u8eca\u7ad9", "name:zh-Latn-pinyin": "ch\u00e1ozh\u014duhu\u01d2ch\u0113zh\u00e0n"}}, {"type": "way", "id": 1140671820, "nodes": [10628105242, 10628105239, 10628105238, 10628105237, 10628105240, 10628105241, 10628105242], "tags": {"building": "industrial"}}, {"type": "way", "id": 1140671821, "nodes": [10628105250, 10628105247, 10628105248, 10628105249, 10628105245, 10628105244, 10628105243, 10628105246, 10628105250], "tags": {"building": "industrial"}}]}