{"version": 0.6, "generator": "Overpass API 0.7.62.5 1bd436f1", "osm3s": {"timestamp_osm_base": "2025-05-26T09:07:01Z", "copyright": "The data included in this document is from www.openstreetmap.org. The data is made available under ODbL."}, "elements": [{"type": "node", "id": 6705075028, "lat": 22.7284893, "lon": 120.2746833}, {"type": "node", "id": 6705075029, "lat": 22.7286231, "lon": 120.2749046}, {"type": "node", "id": 6705075030, "lat": 22.7284082, "lon": 120.2750573}, {"type": "node", "id": 6705075031, "lat": 22.728273, "lon": 120.2748336}, {"type": "node", "id": 6705075032, "lat": 22.7283451, "lon": 120.2747824}, {"type": "node", "id": 6705075033, "lat": 22.7284251, "lon": 120.2749146}, {"type": "node", "id": 6705075034, "lat": 22.7284964, "lon": 120.274864}, {"type": "node", "id": 6705075035, "lat": 22.7284178, "lon": 120.2747341}, {"type": "node", "id": 7030721923, "lat": 22.7284828, "lon": 120.2748736}, {"type": "node", "id": 7035611961, "lat": 22.7305298, "lon": 120.2730276}, {"type": "node", "id": 7035611962, "lat": 22.7303083, "lon": 120.2732258}, {"type": "node", "id": 7035611963, "lat": 22.7305851, "lon": 120.2736428}, {"type": "node", "id": 7035611964, "lat": 22.7308124, "lon": 120.2734754}, {"type": "node", "id": 12396246588, "lat": 22.7287492, "lon": 120.273848}, {"type": "node", "id": 12396246589, "lat": 22.7283303, "lon": 120.2741481}, {"type": "node", "id": 12396246590, "lat": 22.7280704, "lon": 120.2737217}, {"type": "node", "id": 12396246591, "lat": 22.7284894, "lon": 120.2734216}, {"type": "node", "id": 12396246597, "lat": 22.7271714, "lon": 120.2749453}, {"type": "node", "id": 12396246598, "lat": 22.7268794, "lon": 120.2751489}, {"type": "node", "id": 12396246599, "lat": 22.7269921, "lon": 120.2753388}, {"type": "node", "id": 12396246600, "lat": 22.7272841, "lon": 120.2751351}, {"type": "node", "id": 12396262405, "lat": 22.7270994, "lon": 120.2747116}, {"type": "node", "id": 12396262406, "lat": 22.7273209, "lon": 120.2750696}, {"type": "node", "id": 12396262407, "lat": 22.7275267, "lon": 120.27492}, {"type": "node", "id": 12396262408, "lat": 22.7273051, "lon": 120.2745619}, {"type": "way", "id": 713274763, "nodes": [6705075028, 6705075029, 6705075030, 6705075031, 6705075032, 6705075033, 7030721923, 6705075034, 6705075035, 6705075028], "tags": {"addr:city": "\u9ad8\u96c4\u5e02", "addr:country": "TW", "addr:district": "\u6960\u6893\u5340", "addr:housenumber": "127-1.2.3\uff0c129-1.2.3", "addr:street": "\u5927\u5b78\u4e94\u5341\u516d\u8857", "addr:unit": "\u7acb\u63da\u96c6\u5718", "building": "apartments", "building:levels": "15", "building:levels:underground": "3", "name": "\u5927\u5b78\u666e\u7f85\u65fa\u65af"}}, {"type": "way", "id": 752957677, "nodes": [7035611961, 7035611962, 7035611963, 7035611964, 7035611961], "tags": {"building": "apartments", "name": "\u851a\u85cd\u6d77"}}, {"type": "way", "id": 1340107774, "nodes": [12396246588, 12396246589, 12396246590, 12396246591, 12396246588], "tags": {"building": "yes"}}, {"type": "way", "id": 1340107775, "nodes": [12396246597, 12396246598, 12396246599, 12396246600, 12396246597], "tags": {"addr:city": "\u9ad8\u96c4\u5e02", "addr:country": "TW", "addr:district": "\u6960\u6893\u5340", "addr:housenumber": "326", "addr:street": "\u5fb7\u4e2d\u8def", "brand": "\u5168\u806f\u798f\u5229\u4e2d\u5fc3", "brand:en": "Pxmart", "brand:nan": "Cho\u00e2n-li\u00e2n Hok-l\u012b Tiong-sim", "brand:nan-Hant": "\u5168\u806f\u798f\u5229\u4e2d\u5fc3", "brand:nan-Latn-pehoeji": "Cho\u00e2n-li\u00e2n Hok-l\u012b Tiong-sim", "brand:nan-Latn-tailo": "Tsu\u00e2n-li\u00e2n Hok-l\u012b Tiong-sim", "brand:wikidata": "Q7262792", "brand:zh": "\u5168\u806f\u798f\u5229\u4e2d\u5fc3", "building": "yes", "name": "\u5168\u806f\u798f\u5229\u4e2d\u5fc3", "name:en": "Pxmart", "name:nan": "Cho\u00e2n-li\u00e2n Hok-l\u012b Tiong-sim", "name:nan-Hant": "\u5168\u806f\u798f\u5229\u4e2d\u5fc3", "name:nan-Latn-pehoeji": "Cho\u00e2n-li\u00e2n Hok-l\u012b Tiong-sim", "name:nan-Latn-tailo": "Tsu\u00e2n-li\u00e2n Hok-l\u012b Tiong-sim", "name:zh": "\u5168\u806f\u798f\u5229\u4e2d\u5fc3", "opening_hours": "Mo-Su 08:00-23:00", "shop": "supermarket", "short_name": "\u5168\u806f", "short_name:nan": "Cho\u00e2n-li\u00e2n", "short_name:nan-Hant": "\u5168\u806f", "short_name:nan-Latn-pehoeji": "Cho\u00e2n-li\u00e2n", "short_name:nan-Latn-tailo": "Tsu\u00e2n-li\u00e2n", "short_name:zh": "\u5168\u806f"}}, {"type": "way", "id": 1340107777, "nodes": [12396262405, 12396262406, 12396262407, 12396262408, 12396262405], "tags": {"addr:city": "\u9ad8\u96c4\u5e02", "addr:country": "TW", "addr:district": "\u6960\u6893\u5340", "addr:housenumber": "328", "addr:street": "\u5fb7\u4e2d\u8def", "branch": "\u6960\u6893\u5e97", "building": "retail", "building:levels": "1", "name": "\u601d\u5922\u6a02", "opening_hours": "Mo-Su 10:00-22:00", "shop": "clothes"}}]}